{"type":"FeatureCollection","features":[{"type":"Feature","properties":{"name":"BMSIT GLUG","college":"BMSIT","coordinator":"Vignesh","student":"Darshan/Karthik","web":""},"geometry":{"type":"Point","coordinates":[77.5685039,13.1333967]}},{"type":"Feature","properties":{"name":"SVCE GLUG","college":"SVCE","coordinator":"Vijay Kulkarni/Sharavanan","student":"Asif Ali","web":"http://www.focusvce.com"},"geometry":{"type":"Point","coordinates":[77.636139,13.1599714]}},{"type":"Feature","properties":{"name":"TOGGLE (TOCE GLUG)","college":"TOCE","coordinator":"Raghu/Shijil","student":"Nitin R/Mahesh Kumar","web":""},"geometry":{"type":"Point","coordinates":[77.631261,12.9020523]}},{"type":"Feature","properties":{"name":"PlugIN (PESIT-BSC GLUG)","college":"PESIT-BSC","coordinator":"Raghu/Shijil","student":"Vamsi","web":"http://pluginatpes.wordpress.com"},"geometry":{"type":"Point","coordinates":[77.6642228,12.8616838]}},{"type":"Feature","properties":{"name":"DSCE GLUG","college":"DSCE","coordinator":"Rakesh","student":"Jeevan","web":"https://glugdsce.wordpress.com/"},"geometry":{"type":"Point","coordinates":[77.5664343,12.9089389]}},{"type":"Feature","properties":{"name":"JVIT GLUG","college":"JVIT","coordinator":"Rakesh","student":"","web":""},"geometry":{"type":"Point","coordinates":[77.3954016,12.7992545]}},{"type":"Feature","properties":{"name":"Dr AIT GLUG","college":"Dr AIT","coordinator":"Vignesh","student":"Harshitha","web":"http://draitglug.wordpress.com"},"geometry":{"type":"Point","coordinates":[77.5057306,12.9633345]}},{"type":"Feature","properties":{"name":"SJBIT GLUG","college":"SJBIT","coordinator":"Vignesh","student":"Rahul Kondi","web":"http://sjbgnuglug.blogspot.in/"},"geometry":{"type":"Point","coordinates":[77.4963065,12.8990538]}},{"type":"Feature","properties":{"name":"BNMIT GLUG","college":"BNMIT","coordinator":"Karthik Bhat","student":"","web":""},"geometry":{"type":"Point","coordinates":[77.5675933,12.921883]}},{"type":"Feature","properties":{"name":"PESCE Mandya GLUG","college":"PESCE Mandya","coordinator":"Rakesh","student":"Dan","web":"http://glugpesce.blogspot.com"},"geometry":{"type":"Point","coordinates":[76.8797326,12.5175484]}},{"type":"Feature","properties":{"name":"GLUE (GEC Hassan GLUG)","college":"GEC Hassan","coordinator":"Rakesh","student":"Meghana/Samruda","web":"https://gluegechassan.wordpress.com/"},"geometry":{"type":"Point","coordinates":[76.1217598,13.0097414]}},{"type":"Feature","properties":{"name":"PACE GLUG","college":"PACE Mangalore","coordinator":"Vignesh","student":"Sanjay Mahto/Sahil Satishkumar","web":"http://paceglug.blogspot.in/"},"geometry":{"type":"Point","coordinates":[74.932661,12.8067905]}},{"type":"Feature","properties":{"name":"VCET Puttur GLUG","college":"VCET Puttur","coordinator":"Vignesh","student":"Bharadwaj/Nagaraj","web":""},"geometry":{"type":"Point","coordinates":[75.1842512,12.7808007]}},{"type":"Feature","properties":{"name":"RIT GLUG  Hassan","college":"RIT Hassan","coordinator":"Rakesh","student":"Spoorthi/Aditya","web":"http://ritglughassanhassan.wordpress.com/"},"geometry":{"type":"Point","coordinates":[76.1153386,12.9903251]}},{"type":"Feature","properties":{"name":"MCE GLUG  Hassan","college":"MCE Hassan","coordinator":"Rakesh","student":"","web":"http://mceglug.wordpress.com/"},"geometry":{"type":"Point","coordinates":[76.1021945,13.0237108]}},{"type":"Feature","properties":{"name":"FSMK SIT Chapter","college":"SIT Tumkur","coordinator":"Prabodh","student":"","web":""},"geometry":{"type":"Point","coordinates":[77.1258,13.32745]}}]}
